id,名称,地址,桩数,电站类型,充电费用,服务费用,经度,纬度
2798,中信泰富朱家角新城・翠苑二期,张家圩路388弄,4,公共充电站,0.64,0.8000,31.118185,121.039206
2794,中信泰富朱家角新城・悦湖郡,珠湖路669弄,6,公共充电站,0.64,0.8000,31.120829,121.049986
2795,中信泰富朱家角新城・滨湖郡,阁游路288弄,6,公共充电站,0.64,0.8000,31.122194,121.046171
2796,中信泰富朱家角新城・文苑,朱家角阁游路389弄,4,公共充电站,0.64,0.8000,31.122194,121.046171
2797,中信泰富朱家角新城・翠苑一期,阁游路555弄,8,公共充电站,0.97,0.8000,31.121395,121.045923
2799,中信泰富朱家角新城・翠苑三期 ,阁游路777弄,4,公共充电站,0.64,0.8000,31.120545,121.045583
2800,中信泰富朱家角新城・鸿玺郡,朱家角阁游路999号,8,公共充电站,0.97,0.8000,31.120554,121.045889
2801,中信泰富朱家角新城・雅苑,沙淀中路100弄,8,公共充电站,0.97,0.8000,31.113729,121.043162
1195,新城・忆华里,漕盈路与盈浩路交叉口东150米,6,公共充电站,0.80,0.8000,31.145223,121.094691
1638,港隆国际大厦,盈港路453号港隆国际大厦,20,公共充电站,1.20,0.8000,31.159065,121.115645
1639,青浦世纪联华,青浦镇盈港路555号,6,公共充电站,1.30,0.8000,31.158351,121.112563
2600,乐派人才公寓,华青路995弄,5,公共充电站,1.30,0.8000,31.184382,121.136403
7890,康正汽车（青浦店）,白鹤镇,6,公共充电站,1.30,0.8000,31.237192,121.135922
7487,同城光明捷座,花桥镇,6,公共充电站,0.60,0.8000,31.296125,121.113396
7488,同城光明馨座,花桥镇,6,公共充电站,0.60,0.8000,31.295406,121.113217
7460,上海正泰启迪智电港科创中心,松江工业区,12,公共充电站,1.10,0.8000,31.021814,121.171447
1196,新城盛景A 区,华科东路,6,公共充电站,0.80,0.8000,31.159324,121.147199
1720,源昌幸福里一期,崧泉路782号,12,公共充电站,0.64,0.8000,31.158484,121.156921
7741,糖果公元,花桥镇,6,公共充电站,0.85,0.8000,31.287465,121.147979
1435,兰塘集贸市场,民丰路,3,公共充电站,1.20,0.8000,31.305549,121.152912
1774,上海投丰产业园,亭枫公路3158号,6,公共充电站,1.20,0.8000,30.892418,121.188601
1441,辰丰苑,辰塔路,3,公共充电站,0.60,0.8000,31.009986,121.184139
1513,华亭新家三辰苑一村,仓丰路1153弄,16,公共充电站,0.64,0.8000,31.009670,121.188865
1514,华亭新家三辰苑二村,仓丰路955弄,16,公共充电站,0.64,0.8000,31.009611,121.193035
7458,正泰科沁苑,松江工业区,12,公共充电站,0.65,0.8000,31.021935,121.173054
7764,松港西郊智库,香花桥街道,6,公共充电站,1.20,0.8000,31.155188,121.185322
1755,梁杭电商U库,华新镇华南路680号,12,公共充电站,1.20,0.8000,31.228730,121.201139
1439,碧水濠庭,外青松公路199弄（外冈一号营销中心）,4,公共充电站,0.80,0.8000,31.359045,121.175627
1481,河畔艺墅（上城雅苑）,嘉定恒荣路388弄,24,公共充电站,0.80,0.8000,31.354711,121.176126
1194,新城香云庭水云间,中山西路555弄,6,公共充电站,0.80,0.8000,31.006167,121.208921
1577,庐秀新苑西区停车场(入口),松汇中路与松汇西路交叉口北150米,8,公共充电站,0.64,0.8000,31.004990,121.219227
1478,玉龙苑,永丰路216号,8,公共充电站,0.64,0.8000,31.011163,121.215665
1608,荣景苑,松汇中路972弄,8,公共充电站,0.64,0.8000,31.003743,121.224988
2749,嘉和休闲广场,文诚路358弄,9,公共充电站,1.20,0.8000,31.032849,121.218322
1704,佘北家园富雅苑,青城山路(原松凤公路)280弄1-38号,12,公共充电站,0.90,0.8000,31.124031,121.212801
1706,佘北家园秀雅苑,松江区青城山路291弄,12,公共充电站,0.90,0.8000,31.123903,121.212505
1707,佘北家园茗雅苑,青城山路180弄1-42号,12,公共充电站,0.90,0.8000,31.122335,121.213969
2990,上海宝马培训中心【项目部】,汇荣路518号,2,公共充电站,0.00,0.8000,31.410999,121.205420
1558,松南城谷水佳苑,松江区富强路1599弄,48,公共充电站,0.64,0.8000,30.993862,121.232625
1606,南良苑东区,松汇东路291弄,10,公共充电站,0.64,0.8000,31.002018,121.243323
1607,南良苑,松汇东路291弄,12,公共充电站,0.64,0.8000,31.002699,121.242950
7396,云间新天地,中山街道,6,公共充电站,1.20,0.8000,31.003200,121.244551
7457,文化大楼（松江区）,岳阳街道,6,公共充电站,1.20,0.8000,31.013614,121.230290
1605,白云新村,茸城路20弄-1-40号,12,公共充电站,0.64,0.8000,31.005613,121.252182
1729,双高世贸广场,双高世贸大楼1号楼11层,12,公共充电站,1.20,0.8000,31.052840,121.241976
2894,保利西子湾 ,广富林路1188弄 ,6,公共充电站,1.50,0.8000,31.060883,121.234808
1175,金地自在城3期,泗凤公路508弄(9号线泗泾站西南约300米),3,公共充电站,0.64,0.8000,31.113814,121.254439
1503,泗泾新苑西区,泗泾镇青凯路329弄,12,公共充电站,0.64,0.8000,31.117223,121.251103
1504,泗泾新苑东区,泗陈公路附近,12,公共充电站,0.64,0.8000,31.117140,121.253580
2956,上海德晟汽车服务,华新镇北青公路4088号,6,公共充电站,1.30,0.8000,31.201160,121.239185
2997,【宝马私人专用】三友星墅,华强街203弄,0,公共充电站,0.00,0.8000,31.240397,121.234843
1574,金郡坊停车场,工业区高台路1459弄边上49号,14,公共充电站,1.20,0.8000,31.346445,121.242515
1575,常发豪庭,安亭镇,12,公共充电站,0.00,0.8000,31.331274,121.248269
2642,盘古天地一期 ,云屏路1188弄,4,公共充电站,1.10,0.8000,31.339768,121.247143
2644,盘古天地二期 ,云屏路1199弄,4,公共充电站,1.10,0.8000,31.339149,121.245647
2771,中信泰富又一城・嘉苑 ,云屏路388弄,8,公共充电站,0.64,0.8000,31.331318,121.252260
2772,中信泰富又一城・锦苑 ,云屏路518弄,8,公共充电站,0.64,0.8000,31.331952,121.251449
2773,中信泰富又一城・雅苑 ,云谷路599弄,8,公共充电站,0.64,0.8000,31.333396,121.253659
7699,蓝湖郡,安亭镇,6,公共充电站,0.80,0.8000,31.323629,121.254521
7701,蔚蓝香醍,嘉定工业区,6,公共充电站,0.80,0.8000,31.348291,121.247172
1669,中国科学院上海实验学校,清水路169号,6,公共充电站,1.20,0.8000,31.380299,121.233108
1765,锦洋华园,嘉行公路3217号(农业银行唐行分理处附近),6,公共充电站,0.80,0.8000,31.464131,121.239037
1569,沪松五金建材市场(西北门),北松公路6700号10幢附近,8,公共充电站,1.20,0.8000,31.005770,121.265639
1737,松港产业园（松东路）,松东路322号松港产业园A-102,6,公共充电站,1.20,0.8000,31.020381,121.254912
1749,松港大厦(西南门),松卫北路573号附近,6,公共充电站,1.20,0.8000,31.024415,121.261381
2752,松江创异工房 ,沈砖公路6000号,2,公共充电站,1.34,0.8000,31.092270,121.261165
7697,同乐东区,洞泾镇,6,公共充电站,0.64,0.8000,31.085155,121.270114
1685,德邦物流,徐泾镇徐祥路316号,6,公共充电站,1.00,0.8000,31.196064,121.264974
2609,E通世界（南区）,华徐公路685号,2,公共充电站,1.35,0.8000,31.196491,121.265942
7415,E通世界北区,徐泾镇,6,公共充电站,1.20,0.8000,31.199939,121.263446
7765,三银基地产业园,徐泾镇,12,公共充电站,1.20,0.8000,31.193088,121.274797
1756,统鑫商务园,纪丰路327号,6,公共充电站,1.20,0.8000,31.239594,121.255994
1547,金嘉商务广场,天祝路789弄1号地面进北门右手边,10,公共充电站,0.00,0.8000,31.343782,121.255904
1550,金嘉商务广场,天祝路789弄1号B1,10,公共充电站,0.00,0.8000,31.343784,121.255898
1655,绿地颐景嘉园,云谷路157弄,12,公共充电站,0.80,0.8000,31.326469,121.257557
1667,永盛公寓,双单路718弄1-10号,12,公共充电站,0.88,0.8000,31.333291,121.264509
7700,蓝湖香颂,安亭镇,6,公共充电站,0.80,0.8000,31.324101,121.256740
1761,嘉领国际(东北停车场),沪宜公路3128号绿地嘉尚国际广场B1,16,公共充电站,1.36,0.8000,31.368433,121.260440
1762,嘉创国际商务广场(西北门),民乐路15号附近,6,公共充电站,1.36,0.8000,31.368515,121.256736
2633,金元大厦,永盛路1218号,6,公共充电站,1.20,0.8000,31.346996,121.255571
2849,惟乐教育文化园【evcard】,阿克苏路1358号,6,公共充电站,1.40,0.8000,31.350277,121.259597
2893,保利梧桐语 ,嘉戬公路301弄 ,6,公共充电站,1.50,0.8000,31.377421,121.275652
2885,保利爱情故事 ,胜竹路1828弄 ,4,公共充电站,1.50,0.8000,31.404541,121.256813
2886,保利海上五月花 （东区）,永靖路898弄 ,4,公共充电站,1.50,0.8000,31.407900,121.259462
2887,保利五月花广场,胜竹路1780弄,6,公共充电站,1.50,0.8000,31.403730,121.254980
1431,徐行社区服务中心,新建一路1668弄,3,公共充电站,1.20,0.8000,31.417038,121.278373
1753,新座商业休闲街,新车公路2号,6,公共充电站,1.20,0.8000,31.055440,121.305620
2891,保利十二橡树 ,莘砖公路3111弄 ,4,公共充电站,1.50,0.8000,31.093268,121.288753
1736,松港产业园(盛龙路),盛龙路783号,6,公共充电站,1.20,0.8000,31.118480,121.309240
1583,新虹桥首府,九杜路939号3号,24,公共充电站,0.64,0.8000,31.151190,121.303962
2607,新虹桥企业天地,涞坊路1000号,3,公共充电站,1.20,0.8000,31.147402,121.301022
2608,新虹桥休闲街,涞坊路1010号,3,公共充电站,1.20,0.8000,31.148912,121.302680
3431,虹桥世界中心,诸光路与盈港东路交叉口,4,公共充电站,1.30,0.8000,31.184716,121.301232
1614,馨泰佳苑,季乐路476弄,12,公共充电站,0.64,0.8000,31.216865,121.288040
1615,馨乐佳苑,季乐路299弄,12,公共充电站,0.64,0.8000,31.216478,121.292071
2775,城杰苑,鹤霞路600弄,8,公共充电站,0.69,0.8000,31.245797,121.308291
2759,南翔智地 ,沪宜路1101号 ,6,公共充电站,1.40,0.8000,31.295012,121.302485
2924,阳光葡提公馆,宝乐路58弄,6,公共充电站,1.26,0.8000,31.331430,121.289501
2605,锦绣尊邸 ,龙皓路1588弄 ,4,公共充电站,0.64,0.8000,30.752354,121.326585
7462,新源人家,叶榭镇,6,公共充电站,0.64,0.8000,30.936421,121.313143
7463,世纪花苑三村,叶榭镇,6,公共充电站,0.64,0.8000,30.943714,121.313202
7849,世纪花苑四村,叶榭镇,6,公共充电站,0.64,0.8000,30.940428,121.313153
1750,岩氪广场,新镇街1111号,10,公共充电站,1.20,0.8000,31.067682,121.314557
7885,翔展创客园,松江工业区,8,公共充电站,1.20,0.8000,31.045912,121.318981
7756,明中广场,新桥镇,6,公共充电站,1.20,0.8000,31.073022,121.320885
2710,五洲云景花园 ,涞坊路599弄,3,公共充电站,0.64,0.8000,31.150080,121.312322
2750,嘉和阳光城,九新公路58弄,3,公共充电站,1.20,0.8000,31.132827,121.315809
1154,虹桥天地北区,申长路818号虹桥天地1号楼106铺(虹桥火车站),6,公共充电站,2.00,0.8000,31.194626,121.314684
1155,虹桥天地购物中心（南区）,申长路688号,3,公共充电站,2.00,0.8000,31.192431,121.315243
2900,恒基旭辉中心 ,迁虹路和申贵路 ,32,公共充电站,1.30,0.8000,31.212198,121.318139
1699,金鹤新城社区公共服务中心,金园一路1115弄30幢103-106号,14,公共充电站,1.24,0.8000,31.248765,121.317166
1771,歆翱商务大厦,华江路720号,6,公共充电站,1.20,0.8000,31.244624,121.329498
1430,锦华茗园(西北2门),靖远路799弄,8,公共充电站,1.20,0.8000,31.254389,121.333731
1700,上海申窑艺术中心,华江路348号,6,公共充电站,1.24,0.8000,31.250010,121.336150
1586,金地南翔,众仁路560号,4,公共充电站,1.20,0.8000,31.294088,121.322327
1617,上海南翔假日酒店,槎溪路789号,8,公共充电站,1.30,0.8000,31.289639,121.320029
1618,骏丰・嘉天下休闲广场,沪宜公路139号(槎溪路口),10,公共充电站,1.30,0.8000,31.290640,121.317630
2844,朗诗绿色家园（朗诗绿色街区）,宝翔路888号,18,公共充电站,0.79,0.8000,31.312338,121.317707
1744,美兰金色宝邸,潘沪路188弄,12,公共充电站,0.65,0.8000,31.480843,121.333486
1403,都乐美食广场,海汇街500号,10,公共充电站,1.30,0.8000,30.751490,121.337490
1708,红星美凯龙(全球家居生活广场),杭州湾大道1858号,18,公共充电站,1.20,0.8000,30.747403,121.344685
2881,昊初产业园 ,金山南亭公路5800号 ,6,公共充电站,1.40,0.8000,30.885685,121.335613
2883,昊初产业园亭华园区 ,金山亭华路233号 ,6,公共充电站,1.40,0.8000,30.884780,121.349858
7464,新桥松港商务园,新桥镇,6,公共充电站,1.20,0.8000,31.064318,121.346904
1436,九亭家园,沪亭南路1059号,3,公共充电站,0.64,0.8000,31.111244,121.339101
1511,欧西玛创新园区,中春路与姚家车路交叉口东100米,8,公共充电站,1.30,0.8000,31.140066,121.346644
1516,东恩产业园,顾戴西路3333弄58号,6,公共充电站,1.20,0.8000,31.124426,121.349942
1555,昕农停车场,黎安路1399弄18号,12,公共充电站,1.20,0.8000,31.121314,121.351853
1730,苏华超市,莘庄镇中春路5801号,6,公共充电站,1.10,0.8000,31.115815,121.362633
1768,城市E族,顾戴路2688号,10,公共充电站,1.20,0.8000,31.129738,121.357710
1176,七韵美地苑,航中路99弄,15,公共充电站,0.64,0.8000,31.167716,121.354895
1599,顺恒国际商业广场停车场(出口),沪星路289号附近,10,公共充电站,1.20,0.8000,31.164442,121.337686
1675,富建酒店,七莘路1885号,16,公共充电站,1.20,0.8000,31.137714,121.360356
2582,华商时代广场,七莘路3535号,3,公共充电站,1.13,0.8000,31.162264,121.340678
2657,中山国际广场【evcard】,天山西路787号,11,公共充电站,1.35,0.8000,31.217917,121.354879
1666,江桥镇北社区邻里中心,海波路,8,公共充电站,1.24,0.8000,31.267232,121.338146
1763,陕外物流园,真陈路788号,6,公共充电站,1.20,0.8000,31.300612,121.346485
2952,上海众国宝泓（chargenow）,红柳路233号,1,公共充电站,1.20,0.8000,31.292512,121.354384
7429,柒壹捌文创园,宝山城市工业园区,6,公共充电站,1.20,0.8000,31.298560,121.346320
1622,绿地领创国际,城银路525号,20,公共充电站,1.20,0.8000,31.313474,121.350914
1624,绿地领海,城银路555弄,14,公共充电站,1.20,0.8000,31.315476,121.349945
2684,夏侯中小企业园,陈翔路65弄,6,公共充电站,1.60,0.8000,31.317195,121.346078
2896,保利叶上海三期,联杨路1078弄 ,6,公共充电站,1.30,0.8000,31.345460,121.355160
2897,保利叶上海西区 ,菊联路262弄 ,6,公共充电站,1.30,0.8000,31.345214,121.354640
1693,美罗家园罗秀苑,美秀路358弄,6,公共充电站,0.64,0.8000,31.383888,121.351366
1695,美罗家园罗安苑,美安路215弄1-18号,6,公共充电站,0.64,0.8000,31.387622,121.350102
1471,美罗家园吉翔苑(东南门),育才路与陆翔路交叉口东北150米美罗家园吉翔苑附近,4,公共充电站,0.80,0.8000,31.400448,121.341255
1561,古镇苑,市一路220弄1-21号,8,公共充电站,0.80,0.8000,31.415387,121.345347
1562,保翔苑,陆翔路3500弄,10,公共充电站,0.80,0.8000,31.402431,121.340110
1694,罗店大润发,月罗公路2380号1幢1-4层,12,公共充电站,1.10,0.8000,31.409242,121.350879
1696,美罗家园罗翔苑,罗贤路388弄,6,公共充电站,0.64,0.8000,31.389809,121.350805
1697,兰湖美域,月罗公路2333号,12,公共充电站,0.64,0.8000,31.411873,121.352425
1769,年吉苑商业,沪太公路,6,公共充电站,1.10,0.8000,31.404639,121.343207
2845,朗诗绿岛,罗芬路1199弄,20,公共充电站,0.79,0.8000,31.405293,121.349056
3348,上海欣滢汽车维护中心,罗太路570号(上海化工厂罗店分厂西南侧30米),2,公共充电站,1.30,0.8000,31.417725,121.338312
1597,金星绿苑,集贤路500弄,12,公共充电站,0.80,0.8000,31.421749,121.349180
7758,陈川路停车场,罗泾镇,6,公共充电站,0.80,0.8000,31.481162,121.342899
7770,碧桂园上海凤凰城,浏河镇,6,公共充电站,0.88,0.8000,31.525286,121.296072
1532,万科公园大道,富卓路789弄,14,公共充电站,1.20,0.8000,31.025175,121.380577
1576,马桥景城和苑, 上海市闵行区银康路750弄,24,公共充电站,0.64,0.8000,31.020555,121.374300
1553,日月华城,颛兴路666弄,6,公共充电站,0.64,0.8000,31.066015,121.389534
1602,闵行区卫生和计划生育委员会监督所,莘庄镇莘东路520号,8,公共充电站,1.20,0.8000,31.114086,121.374019
1703,上海城投水务集团大厦,春申路,8,公共充电站,1.20,0.8000,31.100374,121.387829
1767,水清三村,庙泾路52弄,12,公共充电站,0.64,0.8000,31.116788,121.378263
7325,西环三村,莘庄镇,12,公共充电站,0.64,0.8000,31.104548,121.365317
7419,莘松三村,莘庄镇,12,公共充电站,0.64,0.8000,31.109327,121.372548
1556,双泽缘停车场(出入口),黎安路659号,6,公共充电站,1.20,0.8000,31.128329,121.368221
2965,强劲大厦,黎安路688号,3,公共充电站,1.50,0.8000,31.128540,121.367114
1488,欧银中心,吴中路1369号,8,公共充电站,1.20,0.8000,31.171972,121.374501
1719,万象城,吴中路1799号万象城(吴中路店)F1层,84,公共充电站,0.90,0.8000,31.170009,121.369532
2588,虹桥晶座（地面）,虹井路280号,3,公共充电站,1.50,0.8000,31.177485,121.372563
2692,虹桥晶座（地下）,虹井路280弄,3,公共充电站,1.10,0.8000,31.177218,121.372399
2715,【宝马私人专用】上海宝信,吴中路1786号,2,公共充电站,0.00,0.8000,31.171055,121.366524
7781,万象城（MT2办公室）B3层,虹桥镇,36,公共充电站,0.90,0.8000,31.169844,121.371593
1484,上海虹桥花卉市场D区,虹井路718-A52号附近,6,公共充电站,1.20,0.8000,31.184302,121.371588
1754,宝燕乐园,虹中路535号,8,公共充电站,1.20,0.8000,31.187394,121.377943
7461,上虹新村4街坊,虹桥镇,10,公共充电站,0.64,0.8000,31.172047,121.388786
7774,盛世莲花广场,虹桥镇,6,公共充电站,1.10,0.8000,31.178689,121.386999
1410,申亚时代广场,蒲淞北路10号,30,公共充电站,1.30,0.8000,31.218187,121.375160
1600,汇映中心,虹梅路,6,公共充电站,1.20,0.8000,31.190631,121.385353
2717,祥和家园（地面）,真光路1433弄,2,公共充电站,0.64,0.8000,31.247109,121.379581
2581,上坤城市广场,聚丰园路91号,3,公共充电站,1.45,0.8000,31.315157,121.385577
2697,保利叶语二期,宝菊路133弄,4,公共充电站,1.30,0.8000,31.343748,121.365871
2898,保利叶之林一期,华秋路349弄 ,6,公共充电站,1.50,0.8000,31.325311,121.378544
2899,保利叶之林二期 ,塘祁路577弄 ,6,公共充电站,1.00,0.8000,31.326051,121.377107
2677,宝沁苑,菊泉街577弄,6,公共充电站,1.20,0.8000,31.356846,121.373835
2678,宝翔苑,菊盛路468弄,6,公共充电站,1.20,0.8000,31.356451,121.371194
2696,保利叶语一期,宝菊路22弄,4,公共充电站,0.90,0.8000,31.344784,121.367149
1541,友好佳苑,江川路680弄,12,公共充电站,1.06,0.8000,31.001699,121.401438
1712,景谷苑,华宁路265弄1之70-71号,12,公共充电站,0.64,0.8000,31.013577,121.394569
1770,红旗四街坊,凤庆路1061弄,12,公共充电站,0.64,0.8000,31.014366,121.397390
1566,万乐泉,东川路2358号,6,公共充电站,1.30,0.8000,31.012114,121.411315
1554,翔泰苑(东门),沪闵公路2694号附近,6,公共充电站,0.64,0.8000,31.047809,121.407500
1589,上海精神卫生中心（沪闵路3210号）,沪闵公路,6,公共充电站,1.20,0.8000,31.057593,121.404991
7301,金塔一村,颛桥镇,12,公共充电站,0.64,0.8000,31.039376,121.410230
7305,金塔二村,颛桥镇,6,公共充电站,0.64,0.8000,31.040599,121.407997
1520,好爱广场,颛桥镇,6,公共充电站,1.26,0.8000,31.086220,121.398849
1758,亿力集团,颛桥镇向阳路1358号,8,公共充电站,1.20,0.8000,31.067370,121.416870
2739,凯龙莘庄商务园,申南路59号,8,公共充电站,1.50,0.8000,31.077708,121.395000
2529,名都新城二期,宝成路155弄,8,公共充电站,0.81,0.8000,31.105968,121.392610
2576,绿地春申 ,莲花南路988,3,公共充电站,0.64,0.8000,31.111161,121.407387
2776,浦西星河湾一期,闵行区金都路3799号,12,公共充电站,0.60,0.8000,31.087389,121.410920
2777,浦西星河湾二期,闵行区金都路3799号,12,公共充电站,0.60,0.8000,31.087241,121.410789
3004,【私人】浦西星河湾二期,都会路3888弄,2,公共充电站,0.00,0.8000,31.089120,121.411160
1489,欧银科谷,沪闵路7890号,6,公共充电站,1.20,0.8000,31.135745,121.405914
1490,欧银集心大楼,春申路2525号3幢附近,6,公共充电站,1.20,0.8000,31.110374,121.415206
1475,虹兴苑,虹梅路2669弄,10,公共充电站,0.95,0.8000,31.176309,121.393315
1674,梅富路366广场,梅陇镇春申路梅富路366号,10,公共充电站,1.30,0.8000,31.175022,121.394582
1677,远中科研楼停车场,虹梅路1905号,6,公共充电站,1.30,0.8000,31.169056,121.397446
2757,古美创智园,东兰路238号,5,公共充电站,1.60,0.8000,31.157472,121.401599
2901,森陇家园 ,徐汇区梅陇路565弄 ,12,公共充电站,1.40,0.8000,31.136770,121.416224
7380,虹梅路2669弄小区,虹桥镇,4,公共充电站,0.64,0.8000,31.176104,121.392551
7763,华美达酒店,漕河泾新兴技术开发区,10,公共充电站,1.10,0.8000,31.163567,121.405894
1612,越界田林坊,田林路130号,6,公共充电站,1.30,0.8000,31.171022,121.416456
2671,马赛花园,荣华东道79弄,2,公共充电站,1.00,0.8000,31.195475,121.396604
2728,H88越虹广场,虹漕路88号,6,公共充电站,1.40,0.8000,31.171629,121.410326
2904,古北国际花园 ,黄金城道600弄 ,6,公共充电站,1.12,0.8000,31.195422,121.401951
2905,古北名都城（二期） ,古北路1700弄 ,6,公共充电站,1.00,0.8000,31.187839,121.400250
1731,远东国际广场,仙霞路299号远东国际广场A栋,6,公共充电站,1.20,0.8000,31.206523,121.400701
2521,DOHO,万航渡路2452号,1,公共充电站,1.45,0.8000,31.220814,121.406003
2646,春天花园,娄山关路999弄,4,公共充电站,0.82,0.8000,31.217178,121.403429
2670,紫云大厦,中山西路800弄55号,1,公共充电站,1.00,0.8000,31.206320,121.410451
2699,中紫小区,中山西路800弄53号,1,公共充电站,1.00,0.8000,31.207148,121.410668
2846,朗诗虹桥绿郡 ,中山西路699号,12,公共充电站,0.84,0.8000,31.210864,121.413428
2975,上海市人力资源和社会保障局,天山路1800号,4,公共充电站,1.20,0.8000,31.210800,121.411326
7884,南丰城,天山路街道,18,公共充电站,1.30,0.8000,31.207314,121.407846
1559,星河世纪广场,真北路2500号,6,公共充电站,1.24,0.8000,31.260519,121.393620
1585,驰骋苑(东南门),大渡河路1516弄1-2号,2,公共充电站,0.80,0.8000,31.246145,121.396847
2538,龙之梦雅士大厦,凯旋路369号,4,公共充电站,1.50,0.8000,31.215677,121.416020
2811,海棠大厦,宁夏路777号,7,公共充电站,1.55,0.8000,31.230847,121.411218
1551,中亚公寓停车场,上海市普陀区普陀区大渡河路2095弄,6,公共充电站,1.20,0.8000,31.260069,121.397405
2868,上电科 ,武宁路505号 ,4,公共充电站,1.15,0.8000,31.244528,121.414767
3260,车联万家（华灵路）,华灵路1950号附近,2,公共充电站,1.30,0.8000,31.280272,121.402462
7306,九五公馆,大场镇,6,公共充电站,1.20,0.8000,31.288080,121.411898
7759,益峰中心,大场镇,6,公共充电站,1.20,0.8000,31.288252,121.411077
2804,【宝马私人专用】涵青学府,涵青路398弄,2,公共充电站,0.00,0.8000,31.331057,121.397696
1690,上海市顾村中学,顾村镇电台路93号(近宝安公路),6,公共充电站,1.20,0.8000,31.351985,121.394483
2510,锦城小区,电台路568弄,4,公共充电站,1.10,0.8000,31.355499,121.390799
2518,怡园小区,电台路398弄,4,公共充电站,0.90,0.8000,31.353437,121.392668
1581,润通菜市场(西门),富联路与水产西路交叉口东南50米,6,公共充电站,1.30,0.8000,31.354438,121.412844
2568,上坤乐城【evcard】,富联路646号,3,公共充电站,1.55,0.8000,31.361614,121.407151
1740,魔族公寓,杨南路618号(地铁1号线),12,公共充电站,1.20,0.8000,31.400679,121.400496
1193,新城昱翠湾,月富路55弄,6,公共充电站,0.80,0.8000,31.431052,121.412200
1739,尚知创意园,月罗公路与申浦路交叉口西北150米,12,公共充电站,1.30,0.8000,31.420453,121.415490
1741,万尚生活广场(沈巷店),月浦镇月罗公路251号,6,公共充电站,1.20,0.8000,31.419521,121.414321
1732,西南商场,沪闵路131号西南商城一楼(中国黄金旁),8,公共充电站,1.20,0.8000,31.002698,121.425298
1540,上海电力工业学校(西北门),剑川路665号,8,公共充电站,0.64,0.8000,31.031346,121.435048
1601,万顺苑(放鹤路),颛桥镇放鹤路2323弄,12,公共充电站,0.70,0.8000,31.044242,121.422189
1610,东苑佳和园,永平南路198弄之1-13号,12,公共充电站,0.64,0.8000,31.012112,121.434796
1644,零号湾,剑川路951号2号楼,6,公共充电站,1.30,0.8000,31.026331,121.422318
1759,馨香公寓(北桥店),颛桥镇沪闵路1677号A栋,6,公共充电站,1.20,0.8000,31.028869,121.418025
7308,绿地银春小区,颛桥镇,10,公共充电站,0.80,0.8000,31.030449,121.419156
1521,全方位科技园,都会路1699号,12,公共充电站,1.20,0.8000,31.059225,121.420886
1631,君莲新城中城苑,春都路75弄1-52号,12,公共充电站,0.64,0.8000,31.082298,121.420371
1632,曙建农贸市场停车场,曙建路111-1号附近,6,公共充电站,1.20,0.8000,31.092588,121.420809
1633,君莲新城中城苑(地下一号车库),春都路75弄52号,6,公共充电站,0.64,0.8000,31.081126,121.421161
1634,君莲新城中城苑(地下二号车库),春都路75弄1-52号,6,公共充电站,0.64,0.8000,31.083469,121.419628
1613,普乐二村,普乐路425弄34-65号,14,公共充电站,0.64,0.8000,31.114762,121.423572
1616,虹梅南苑,虹梅南路1728弄1-102号,6,公共充电站,0.64,0.8000,31.112997,121.428902
1751,全季酒店(上海虹梅南路店),虹梅南路3135弄51号,6,公共充电站,1.20,0.8000,31.087666,121.436694
1557,上海晶城晶采坊,业祥路111弄,8,公共充电站,1.20,0.8000,31.123898,121.436113
7887,沃尔玛（凌云路店）,凌云路街道,8,公共充电站,1.20,0.8000,31.136413,121.431087
1091,恒地仓国际大厦,柳州路399甲,12,公共充电站,1.27,0.8000,31.167111,121.425244
1440,漕河泾产业园,冠生园路227号(漕河泾产业园区)4号楼3楼,5,公共充电站,1.20,0.8000,31.163193,121.427555
1482,罗城停车场,罗城路,6,公共充电站,1.40,0.8000,31.150692,121.439296
1652,光大会展中心,漕宝路66号,12,公共充电站,0.00,0.8000,31.167194,121.428825
1676,上海南站,石龙路,12,公共充电站,1.30,0.8000,31.153103,121.433913
1724,银海大楼,漕溪路250号,6,公共充电站,1.20,0.8000,31.170578,121.434030
1773,上海市环境科学研究院,钦州路508号 ,8,公共充电站,1.20,0.8000,31.169633,121.429996
1531,元福大厦,虹桥路188号,6,公共充电站,1.20,0.8000,31.191780,121.431612
1549,中金国际广场,漕溪北路331号,18,公共充电站,1.27,0.8000,31.190700,121.438763
1609,华林大楼停车场(入口),漕溪路190,6,公共充电站,1.20,0.8000,31.174378,121.434714
1716,汇智大厦(漕溪北路),漕溪北路396-398号,16,公共充电站,1.20,0.8000,31.187797,121.436275
1722,华宜大厦,中山西路2020号(宜山路口),16,公共充电站,1.30,0.8000,31.181925,121.426906
1723,景鸿大楼,宜山路508号,12,公共充电站,1.20,0.8000,31.181924,121.425713
2513,圣爱大厦,漕溪北路88号,4,公共充电站,1.20,0.8000,31.191856,121.437034
2558,虹桥路772弄,虹桥路772弄 ,4,公共充电站,0.64,0.8000,31.194257,121.424579
2563,城开国际大厦,虹桥路355号,12,公共充电站,1.50,0.8000,31.193450,121.431257
2664,新华世纪园,新华路726号,6,公共充电站,0.64,0.8000,31.206558,121.418626
2682,虹南大楼,虹桥路1024弄,2,公共充电站,1.00,0.8000,31.195158,121.418667
2769,华联发展大厦,新华路728号,1,公共充电站,1.35,0.8000,31.206336,121.417850
7323,维也纳酒店（第六人民医院店）,田林街道,4,公共充电站,1.15,0.8000,31.180828,121.422517
1470,汇民百货（城开yoyo）,天钥桥路123号,8,公共充电站,1.30,0.8000,31.192440,121.442041
1483,太平洋中心,延安西路889号,10,公共充电站,1.26,0.8000,31.215074,121.432300
1499,飞雕国际大厦停车场(肇嘉浜路),肇嘉浜路1065-6号,10,公共充电站,1.26,0.8000,31.194700,121.441520
1726,星游城,天钥桥路580号,10,公共充电站,1.30,0.8000,31.185137,121.442349
2573,申峰大厦,天钥桥路438,2,公共充电站,0.64,0.8000,31.187084,121.441972
2574,长峰中心,延安西路1088号,3,公共充电站,1.10,0.8000,31.210970,121.431060
2647,迎龙大厦,延安西路1358号,5,公共充电站,1.48,0.8000,31.209399,121.424648
2672,花园大厦,长宁路982号,1,公共充电站,1.00,0.8000,31.218926,121.418140
2698,上实大厦,漕溪北路38号,8,公共充电站,1.13,0.8000,31.193005,121.437812
2762,苏河汇,光复西路1107号,2,公共充电站,1.40,0.8000,31.228496,121.422816
3346,华联创意广场J座,江苏北路125号,2,公共充电站,1.50,0.8000,31.227272,121.424072
7430,国际和平妇幼保健院,徐家汇街道,6,公共充电站,1.20,0.8000,31.196075,121.438305
1654,三和花园,延平路123弄,12,公共充电站,0.81,0.8000,31.228354,121.439976
2515,金航大厦,万航渡路83号,4,公共充电站,1.28,0.8000,31.224780,121.443400
2524,绿洲尧舜公寓,澳门路872弄,2,公共充电站,1.10,0.8000,31.240928,121.434790
2596,杰地大厦,中山北路2790号,12,公共充电站,2.00,0.8000,31.246982,121.425255
2667,锦海大厦,长寿路457号,4,公共充电站,1.40,0.8000,31.238779,121.436651
2876,云峰大饭店 ,北京西路1700号 ,3,公共充电站,1.20,0.8000,31.226803,121.442925
2877,全季酒店万航渡路店 ,万航渡路105号 ,3,公共充电站,1.20,0.8000,31.225000,121.442550
1528,云仓复合型电商创意园,灵石路891号,6,公共充电站,1.20,0.8000,31.278082,121.432737
1642,双鸿大楼,沪太路1128号附近,8,公共充电站,1.25,0.8000,31.275628,121.428764
1721,上海酒总酒店设备大卖场停车场(入口),澳门路345号,6,公共充电站,1.20,0.8000,31.246591,121.442427
2548,浦联佳苑,阳城路388弄,8,公共充电站,0.64,0.8000,31.284679,121.423583
2654,美隆生活广场,大华三路81号,6,公共充电站,1.45,0.8000,31.275925,121.418866
2756,{私人}香溢花城二期 ,石泉东路168弄,2,公共充电站,0.69,0.8000,31.255565,121.432995
7431,上海岚灵花鸟市场,万里街道,6,公共充电站,1.20,0.8000,31.268166,121.421577
7881,百安居,大场镇,6,公共充电站,1.21,0.8000,31.287338,121.418837
1604,诺诚1895创意园,沪太路1895弄-51号,12,公共充电站,1.25,0.8000,31.292114,121.421187
2601,景星苑-地面,广中西路883弄1 - 8号,6,公共充电站,1.15,0.8000,31.282734,121.444352
2604,景星苑-地下,广中西路883弄,6,公共充电站,1.15,0.8000,31.276874,121.437950
2639,江裕大厦,广中西路777弄,6,公共充电站,1.50,0.8000,31.278927,121.439022
2767,悠诗阁,沪太路826号,3,公共充电站,1.35,0.8000,31.267450,121.442030
7762,上海信息服务产业园,万荣路1188号,6,公共充电站,1.20,0.8000,31.292398,121.439962
1190,共康雅苑【evcard】,花园宅路190弄,0,公共充电站,0.00,0.8000,31.328484,121.422393
2645,北斗星商业广场,长临路999号,5,公共充电站,1.40,0.8000,31.325479,121.435068
2884,九英里城 ,宝山长临路1318弄 ,6,公共充电站,1.20,0.8000,31.329819,121.430214
1742,智慧湾科创园,川路6号,6,公共充电站,1.30,0.8000,31.344245,121.433528
2761,智汇园,呼兰路799号,2,公共充电站,1.40,0.8000,31.342724,121.443001
1743,魔族国际青年社区,宝杨路3323号(青柠运功中心),12,公共充电站,1.20,0.8000,31.373250,121.433784
2578,香逸湾四期,竹韵路128弄,4,公共充电站,0.64,0.8000,31.365434,121.443129
1469,江海汇（馨煌广场）,月浦镇德都路与安家路路口馨煌广场,0,公共充电站,1.20,0.8000,31.409769,121.425978
1477,海畔家园,苍工路295号,6,公共充电站,0.64,0.8000,30.825521,121.468139
1713,上海南桥绿地铂骊酒店,南桥镇环城东路473号1-20层,6,公共充电站,1.20,0.8000,30.941907,121.460966
7757,上海芯哲科创中心,奉浦社区,12,公共充电站,1.20,0.8000,30.948980,121.458378
1760,虹梅休闲广场,永德路362号联华超市后方地库,6,公共充电站,1.20,0.8000,31.041924,121.457774
7469,华东理工大学科技园（梅陇基地）,梅陇镇,6,公共充电站,1.20,0.8000,31.100236,121.445670
1661,欣隆大厦,上海市闵行区龙吴路3201,14,公共充电站,1.20,0.8000,31.096003,121.455613
1647,明丰新纪苑,华发路99弄之1-66号,12,公共充电站,0.64,0.8000,31.125698,121.453712
1752,上海坤政商务楼,上中路461-479号坤政商务楼,14,公共充电站,1.20,0.8000,31.141250,121.447745
1494,建科集团,枫林路街道宛平南路75号,16,公共充电站,1.20,0.8000,31.195578,121.445927
1548,上海市精神卫生中心(宛平南路),宛平南路600号,8,公共充电站,1.20,0.8000,31.187294,121.448062
1725,恒昌花园,徐汇宛平南路521号,14,公共充电站,1.30,0.8000,31.189075,121.449155
2526,兴都大楼,南丹东路18号,2,公共充电站,1.20,0.8000,31.190786,121.445480
2544,永新城,辛耕路81弄,3,公共充电站,1.30,0.8000,31.193414,121.444536
2557,枫林国际,枫林路388号,2,公共充电站,1.30,0.8000,31.191330,121.457880
2803,银亿茗悦公寓 ,斜土路1515号,8,公共充电站,1.35,0.8000,31.197669,121.459783
1728,金巢铂瑞阁,合宝路18号金巢大厦,12,公共充电站,1.35,0.8000,31.200431,121.464986
1757,襄阳大楼,襄阳北路97号,10,公共充电站,1.30,0.8000,31.218734,121.455415
2541,亦园,安福路168号,2,公共充电站,1.40,0.8000,31.214618,121.444481
2561,嘉华中心,淮海中路1010号,3,公共充电站,1.39,0.8000,31.215919,121.456140
2747,中信泰富广场,南京西路1168号,3,公共充电站,1.51,0.8000,31.228900,121.455410
2788,桔子水晶酒店斜土店,斜土路1227号,4,公共充电站,1.50,0.8000,31.199929,121.463671
1596,上海博鸿大厦,江宁路495号,6,公共充电站,1.50,0.8000,31.234945,121.451275
2511,威海苑,重庆北路318号,4,公共充电站,1.00,0.8000,31.228755,121.469240
2546,新梅大厦,天目中路585弄,2,公共充电站,1.20,0.8000,31.245167,121.464100
2572,中泰大厦,泰兴路528号,6,公共充电站,0.62,0.8000,31.235579,121.457251
2687,现代交通大厦,恒丰路218号,4,公共充电站,1.20,0.8000,31.241297,121.456695
2707,成巨停车场,成都南路26号,3,公共充电站,1.09,0.8000,31.223055,121.467424
2745,新梅大厦（地下）,天目中路585号,1,公共充电站,1.20,0.8000,31.245104,121.464198
2540,蓝宝石大厦,天目路253号,3,公共充电站,1.30,0.8000,31.246825,121.470160
2623,金棕榈公寓,南山路35弄,8,公共充电站,0.61,0.8000,31.257039,121.466565
2625,观景苑,新马路258弄,6,公共充电站,0.96,0.8000,31.248005,121.467967
2655,慧芝湖花园三期,灵石路208号,8,公共充电站,1.50,0.8000,31.283042,121.456381
2669,昆泰大厦,中兴路1101号,6,公共充电站,1.25,0.8000,31.252928,121.465015
2673,盛源生活广场,柳营路763号,3,公共充电站,1.40,0.8000,31.263834,121.455800
2688,嘉利明珠城,平型关路377弄,2,公共充电站,0.64,0.8000,31.272250,121.463270
2760,大宁财智中心,灵石路658号,6,公共充电站,1.40,0.8000,31.282744,121.445671
7760,上海铭德大酒店,西藏北路558号,6,公共充电站,1.20,0.8000,31.250958,121.469877
7886,万佳商厦,静安区,6,公共充电站,1.20,0.8000,31.245442,121.468428
2764,大润发共和新路店 ,共和新路3318号,4,公共充电站,1.35,0.8000,31.297955,121.447834
2782,龙泰公寓,新同心路108弄,4,公共充电站,0.89,0.8000,31.275749,121.466113
2926,美邦大楼,江场西路160号,6,公共充电站,1.31,0.8000,31.298651,121.446933
1766,0599时尚园区,江杨南路1646号,6,公共充电站,1.20,0.8000,31.336725,121.465798
2577,香逸湾一期,莲花山路517,4,公共充电站,0.66,0.8000,31.363139,121.447279
2579,香逸湾二期,竹韵路58弄,4,公共充电站,0.66,0.8000,31.363260,121.446461
1621,永景国际大厦,友谊路1518弄2号,12,公共充电站,1.20,0.8000,31.393719,121.456661
1734,湄浦公寓,铁力路2479号附近,12,公共充电站,1.20,0.8000,31.404602,121.459634
1735,东智广场,友谊路1506号,10,公共充电站,1.20,0.8000,31.394352,121.456405
7761,威尼斯水城,杨行镇,12,公共充电站,1.30,0.8000,31.394778,121.457200
1568,乐购(奉贤金叶店),环城东路1454-1468号Tesco乐购(奉贤店)1层,14,公共充电站,1.20,0.8000,30.912507,121.469787
1641,绿地翡翠国际广场停车场,解放东路1008号绿地翡翠国际广场,12,公共充电站,1.25,0.8000,30.918309,121.472296
1643,二建大厦(东正门),南奉公路7228号附近,12,公共充电站,1.20,0.8000,30.919652,121.492398
1660,南郊美墅,南桥镇望园南路展园路250号,12,公共充电站,1.20,0.8000,30.925627,121.488941
1662,南郊御墅,南桥镇展园路250弄,12,公共充电站,1.00,0.8000,30.926341,121.479758
1663,南郊聚润广场,望园路德丰路299弄1号,12,公共充电站,1.20,0.8000,30.925266,121.486121
7459,南郊宾馆,金海社区,6,公共充电站,1.20,0.8000,30.925033,121.483556
1659,南郊一品,德丰路69弄25号(金海路德丰路路口),18,公共充电站,1.00,0.8000,30.925712,121.492136
1623,浦雪路269号,浦江镇浦雪路269号(近江园路),12,公共充电站,1.40,0.8000,31.073460,121.493273
1468,禧恒租赁,塘浦路1070号,6,公共充电站,1.20,0.8000,31.105910,121.473971
1492,浦恒馨苑,浦锦路2159弄,24,公共充电站,0.70,0.8000,31.113385,121.483802
1493,浦秀馨苑,浦秀路1139弄,24,公共充电站,0.70,0.8000,31.086349,121.490786
1538,宝铭浦秀苑,浦秀路750弄1-47号,32,公共充电站,0.70,0.8000,31.083368,121.493617
1580,公安小区,鲁陈路3955弄,12,公共充电站,0.70,0.8000,31.089068,121.497921
2889,保利茉莉公馆一期,浦秀路1536弄  ,6,公共充电站,1.50,0.8000,31.095432,121.488910
2890,保利茉莉公馆二期 ,浦秀路1535弄 ,6,公共充电站,1.50,0.8000,31.094905,121.488492
1579,鹏欣一品漫城4期,芦恒路408弄,6,公共充电站,1.25,0.8000,31.117025,121.488222
1701,上海市第一妇婴保健院浦东分院,耀华路391号,10,公共充电站,1.20,0.8000,31.174395,121.484512
2627,智造局一期,蒙自路169号,6,公共充电站,1.40,0.8000,31.206321,121.477571
2628,智造局二期,局门路427号1号楼,6,公共充电站,1.40,0.8000,31.203157,121.482291
7819,世博园一号门,五里桥街道,4,公共充电站,1.20,0.8000,31.195340,121.480112
1595,柳林大厦,淮海中路1号,6,公共充电站,1.30,0.8000,31.225042,121.480075
2556,鸿祥大厦,黄河路21号,2,公共充电站,1.20,0.8000,31.233542,121.471100
2580,建新公寓,建国新路28弄,4,公共充电站,0.69,0.8000,31.215206,121.483937
2640,明日星城二期,中华路868弄,12,公共充电站,0.64,0.8000,31.214691,121.494160
2718,老西门新苑,西藏南路688弄1-18号,6,公共充电站,1.23,0.8000,31.216054,121.483165
2729,东海商业中心 ,延安东路618号,3,公共充电站,1.20,0.8000,31.230130,121.480120
2753,上海大剧院,人民大道300号,3,公共充电站,1.50,0.8000,31.229449,121.471930
1442,四行天地,西藏北路18号(近北苏州路),6,公共充电站,1.40,0.8000,31.241119,121.472225
1637,华设大厦,福州路318号,6,公共充电站,1.20,0.8000,31.234711,121.484091
1684,上海南新雅大酒店,九江路700号,6,公共充电站,1.10,0.8000,31.234396,121.477049
1717,万豪公寓(塘沽路),塘沽路835号1103,6,公共充电站,1.24,0.8000,31.245949,121.479659
2650,凯润商务楼,四川北路1611号,3,公共充电站,1.30,0.8000,31.256726,121.482545
2689,农商总部大楼,西藏北路199号,3,公共充电站,1.53,0.8000,31.244230,121.471009
2720,盛邦国际大厦,四川北路1318号,5,公共充电站,1.25,0.8000,31.251356,121.484803
2732,香港名都,复兴东路733号,23,公共充电站,1.26,0.8000,31.222445,121.490405
2766,宝龙大厦,九江路686号,3,公共充电站,1.35,0.8000,31.234752,121.477616
3259,外滩半岛酒店,中山东一路32号,3,公共充电站,1.51,0.8000,31.241316,121.489110
1593,联华超市(华昌路),东宝兴路777号世纪联华超市,0,公共充电站,1.30,0.8000,31.263654,121.475441
1594,世纪联华东宝店(东门),东宝兴路777号,6,公共充电站,1.30,0.8000,31.263340,121.475710
2553,宝莲大厦,曲阳路299号,2,公共充电站,1.50,0.8000,31.272129,121.491590
2592,虹口现代公寓,天宝路66弄,8,公共充电站,1.15,0.8000,31.261046,121.495534
2621,东渡名人大厦,曲阳路438号,8,公共充电站,1.50,0.8000,31.274269,121.491442
2649,凯鸿广场,四川北路1661号,3,公共充电站,1.30,0.8000,31.257564,121.482507
2651,凯润金城,东宝兴路258弄,3,公共充电站,1.30,0.8000,31.257321,121.482220
2705,法兰桥,欧阳路198号 ,3,公共充电站,1.40,0.8000,31.266838,121.488113
2793,白金府邸,旅顺路199弄,10,公共充电站,0.62,0.8000,31.250226,121.494458
2946,兴华小区,东体育会路100弄,4,公共充电站,0.70,0.8000,31.274355,121.481799
7883,宏伦大厦,嘉兴路街道,6,公共充电站,0.64,0.8000,31.257340,121.494410
1682,上海市虹口区江湾医院停车场,场中路22号上海市虹口区江湾医院内,4,公共充电站,0.88,0.8000,31.307587,121.480654
2727,置汇谷,东体育会路816号,3,公共充电站,1.38,0.8000,31.283578,121.487530
1692,景瑞尚中心,云西路168弄9号,20,公共充电站,1.20,0.8000,31.319914,121.474278
2591,逸仙大厦,高逸路105号,6,公共充电站,1.30,0.8000,31.323557,121.488009
2653,第六区全年折扣中心 ,殷高西路333号,8,公共充电站,1.50,0.8000,31.320428,121.471501
7744,北上海中心,高境镇,12,公共充电站,1.20,0.8000,31.322071,121.486450
2668,国际节能环保园 ,长江西路101号,3,公共充电站,1.60,0.8000,31.345161,121.477420
2743,复旦软件园,长逸路188号,5,公共充电站,1.55,0.8000,31.338019,121.493879
2569,1919园区 ,淞兴西路258号 ,3,公共充电站,1.30,0.8000,31.366863,121.488782
1415,宝山德尔塔酒店,双庆路与海江路交叉口南150米,12,公共充电站,1.20,0.8000,31.391706,121.483083
1733,上海宝房友宜物业管理有限公司(盘古路),友谊路街道,6,公共充电站,1.30,0.8000,31.406038,121.477609
2555,宝莲城,双城路803弄,6,公共充电站,1.40,0.8000,31.389196,121.486384
2570,宝莲府邸,海江路803号,10,公共充电站,1.20,0.8000,31.396371,121.485837
7888,逸贤雅苑,金汇镇,6,公共充电站,0.64,0.8000,30.955835,121.508923
1678,永康城永锦苑,永颂路198弄1-32号,12,公共充电站,0.64,0.8000,31.029340,121.502833
1679,永康城佳兴苑,永跃路782弄1-22号,12,公共充电站,0.64,0.8000,31.034255,121.511194
1500,明浦广场二期,三鲁公路3279号,10,公共充电站,1.20,0.8000,31.079559,121.521294
1510,国家863软件专业孵化器(上海)基地,联航路1588号,12,公共充电站,1.20,0.8000,31.079630,121.518271
1542,豪华白钢,竹园路77号,6,公共充电站,1.20,0.8000,31.070299,121.523214
1582,浦江意优,恒南路,6,公共充电站,1.20,0.8000,31.079848,121.514647
7470,思兰创客中心,浦江镇,6,公共充电站,1.20,0.8000,31.062839,121.520342
1530,绿波家园,三旋路506弄-1-31号,20,公共充电站,0.64,0.8000,31.119129,121.501541
1626,浦江智谷,浦江镇联航路1188号,8,公共充电站,1.20,0.8000,31.079790,121.523960
2963,华侨城中意国际,浦星公路800号,5,公共充电站,1.15,0.8000,31.107179,121.501155
1746,三林老街,三新路9号,6,公共充电站,1.10,0.8000,31.138443,121.506911
1564,云台苑,浦东南路4401号,12,公共充电站,0.64,0.8000,31.181353,121.499858
2565,世华锦城,板泉路951号,12,公共充电站,1.10,0.8000,31.160028,121.500430
2590,东方悦居苑,杨思路1121弄,12,公共充电站,0.64,0.8000,31.164888,121.504089
2663,爵士悦 ,云台路529弄,6,公共充电站,0.64,0.8000,31.169760,121.505996
2514,康琳创意园,杨高南路2875号,5,公共充电站,1.35,0.8000,31.176427,121.519680
2754,银亿滨江中心,浦三路21弄,20,公共充电站,1.50,0.8000,31.197156,121.512119
1611,越富豪庭,峨山路681弄1-5号,12,公共充电站,0.64,0.8000,31.214256,121.519399
1745,沃尔玛(上海南浦大桥店),临沂北路252-262号(靠近浦建路),12,公共充电站,1.44,0.8000,31.203599,121.517984
2748,东方天伦大厦,塘桥新路201弄1-3号,3,公共充电站,1.21,0.8000,31.211253,121.515418
2812,永业商务楼 ,浦东南路2240号 ,3,公共充电站,2.00,0.8000,31.205617,121.514200
2858,滨江名人苑,上海市黄浦区外咸瓜街38号 ,6,公共充电站,1.55,0.8000,31.224116,121.499076
2927,华南大厦,东方路1988号,6,公共充电站,1.36,0.8000,31.198914,121.519930
2993,财富海景花园,浦明路258弄1-7号,10,公共充电站,0.74,0.8000,31.225693,121.508434
1177,上海海洋水族馆,陆家嘴环路1388号(近东方明珠)上海海洋水族馆内,6,公共充电站,1.23,0.8000,31.241208,121.502009
1399,长治大楼,东长治路701号,2,公共充电站,1.40,0.8000,31.251665,121.501534
1544,浦江国际金融广场,东大名路1029号B4层停车场,14,公共充电站,1.20,0.8000,31.251772,121.508998
2547,华飞公寓,潍坊路59弄,4,公共充电站,0.64,0.8000,31.223934,121.518870
2587,白金湾府邸,海平路18号,12,公共充电站,0.64,0.8000,31.251164,121.506320
2617,华夏银行大厦,浦东南路256号,6,公共充电站,1.24,0.8000,31.239820,121.508851
2809,紫虹嘉苑,岳州路399弄1-19号,10,公共充电站,0.62,0.8000,31.261166,121.502640
2955,滨江会馆,浦东南路27号,2,公共充电站,1.15,0.8000,31.243554,121.506531
2989,银城商务广场（大华银行大厦地下）,即墨路与银城路交叉口西100米,2,公共充电站,1.31,0.8000,31.241699,121.510500
1636,骏丰国际财富广场,大连路1599号骏丰国际广场内,14,公共充电站,1.30,0.8000,31.273771,121.501922
2593,卫百辛大厦,控江路1688号,3,公共充电站,1.40,0.8000,31.274573,121.515370
2641,海上海新城写字楼,大连路990号,3,公共充电站,1.20,0.8000,31.265930,121.507383
2656,海上海新城住宅,飞虹路600弄,6,公共充电站,0.64,0.8000,31.266788,121.509018
2661,文通大厦,昆明路739号,6,公共充电站,1.30,0.8000,31.263089,121.515528
2662,文通雅苑,辽阳路508弄,8,公共充电站,1.30,0.8000,31.263355,121.514255
2780,岚亭园,昆明路640号,3,公共充电站,1.40,0.8000,31.261805,121.514415
1563,信通浦皓园,江浦路1200号,16,公共充电站,0.80,0.8000,31.270541,121.521532
2765,大润发黄兴路店,黄兴路1616号,7,公共充电站,1.35,0.8000,31.288660,121.521740
2857,沪东金融大厦,翔殷路1128号,6,公共充电站,1.60,0.8000,31.301118,121.517307
2875,华升新苑 ,上海市杨浦区控江路1505弄 ,12,公共充电站,0.89,0.8000,31.274524,121.523060
2691,中原城市广场,国和路701号,3,公共充电站,1.30,0.8000,31.315331,121.521709
2758,绿地汇创国际广场,国定东路275号,4,公共充电站,1.60,0.8000,31.299266,121.521092
2922,嘉誉湾二期,淞沪路1888弄,12,公共充电站,0.84,0.8000,31.332667,121.508017
2923,嘉誉湾三期（嘉誉国际广场）,淞沪路1660号,9,公共充电站,1.30,0.8000,31.329477,121.508141
1714,广汽传祺成套店,浦江镇三鲁公路885号,8,公共充电站,1.20,0.8000,31.033672,121.530703
1715,溪百货,闸航路,6,公共充电站,1.20,0.8000,31.019929,121.531964
2676,浦润苑,浦航路718弄,6,公共充电站,1.20,0.8000,31.042373,121.532826
1508,中虹浦江苑南区,浦涛路75弄1-73号,6,公共充电站,0.64,0.8000,31.048681,121.544620
7755,聚缘北庭,浦江镇,4,公共充电站,0.70,0.8000,31.044908,121.544527
1625,浦江智谷(东南门),联航路1188号,16,公共充电站,1.20,0.8000,31.079275,121.526353
1747,红柿苑,环林西路777弄之1-19号,6,公共充电站,0.70,0.8000,31.140636,121.526387
2888,保利林语溪,秀沿西路68弄 ,12,公共充电站,1.50,0.8000,31.131426,121.537304
2532,紫翠高清苑,下南路115弄,16,公共充电站,0.64,0.8000,31.166029,121.543650
2744,新里城和合苑,杨高南路4501弄,2,公共充电站,0.69,0.8000,31.159985,121.525662
2786,大华锦绣华城14街区,华鹏路300弄,11,公共充电站,0.64,0.8000,31.174923,121.525864
1650,上海大华锦绣假日酒店(西南1门),锦尊路399号,10,公共充电站,1.25,0.8000,31.180201,121.532774
2530,中环锦绣商务,锦绣路3891号,4,公共充电站,1.30,0.8000,31.166295,121.546296
2778,浦东星河湾一期,浦东新区锦绣路2580号,12,公共充电站,1.20,0.8000,31.192832,121.533919
2779,浦东星河湾二期,锦绣路2580号星河湾悦心园,12,公共充电站,1.20,0.8000,31.193131,121.534799
1591,新港大厦,松林路283号新港大厦,20,公共充电站,1.20,0.8000,31.227278,121.534133
1718,国华人寿金融大厦,向城路288号,10,公共充电站,1.35,0.8000,31.226341,121.533461
2704,金龙东苑,浦建路365弄,3,公共充电站,0.64,0.8000,31.208902,121.528106
1068,证大立方,民生路14号附近,10,公共充电站,1.35,0.8000,31.224885,121.552079
1432,证大源深金融,鄂尔多斯艾力大厦东(张杨路南),6,公共充电站,1.35,0.8000,31.233440,121.539840
2571,证大五道口,民生路1199弄,3,公共充电站,1.30,0.8000,31.225976,121.550477
2586,太平人寿大厦,民生路1399号,3,公共充电站,1.20,0.8000,31.223865,121.550711
2701,珠江玫瑰花园,浦东大道1097弄,18,公共充电站,0.80,0.8000,31.243480,121.531634
2787,上海信息大厦,民生路1403号,5,公共充电站,1.30,0.8000,31.223972,121.551254
2895,保利香槟苑 ,怀德路366弄 ,4,公共充电站,1.50,0.8000,31.256097,121.527288
1522,长城饭店,眉州路272号(红房子医院对面),6,公共充电站,1.26,0.8000,31.261300,121.536429
2652,杨浦公寓,控江路980弄,6,公共充电站,0.62,0.8000,31.281213,121.531358
2690,大居苑,控江路1169弄,4,公共充电站,0.62,0.8000,31.276909,121.528473
2706,龙珠广场,浦东大道2123号,5,公共充电站,1.20,0.8000,31.250231,121.550339
3135,上海绿地宝仕,周家嘴路3388号,2,公共充电站,0.00,0.8000,31.276793,121.539260
7889,翰昌天地,延吉新村街道,8,公共充电站,1.20,0.8000,31.288311,121.531647
2792,申亚花满庭,航南公路1981弄8号,8,公共充电站,0.80,0.8000,30.982928,121.554075
1649,繁荣华庭,周康路168号,8,公共充电站,1.30,0.8000,31.105526,121.571868
2626,康桥树源,康桥路1059号,2,公共充电站,1.50,0.8000,31.149391,121.569197
2979,上海凡德汽车销售服务有限公司,沪南路2525号,20,公共充电站,1.20,0.8000,31.150584,121.566675
1705,7天酒店(上海浦东新国际博览中心店),芳华路220号(地铁7号线芳华路站1号出口向东500米),12,公共充电站,1.20,0.8000,31.194381,121.555374
1709,世纪联华超市(花木店),海桐路338号(近蜀趣),10,公共充电站,1.30,0.8000,31.209775,121.551233
1702,上海邮通机械制造有限公司,杨高中路2100号,12,公共充电站,1.20,0.8000,31.232669,121.557403
2589,证大大拇指广场,芳甸路199弄,6,公共充电站,1.10,0.8000,31.226768,121.559640
2598,金鹰大厦,民生路1518号（含笑路80号）,6,公共充电站,1.31,0.8000,31.226658,121.556607
2880,喜玛拉雅中心,樱花路869号 ,6,公共充电站,1.42,0.8000,31.209241,121.561945
2522,龙居苑,龙居路2弄,6,公共充电站,0.64,0.8000,31.255871,121.558742
1710,伟莱家园, 浦东新区浦东大道3076弄,20,公共充电站,0.64,0.8000,31.281949,121.577120
1772,荷兰风情街二期,高荷路,6,公共充电站,1.20,0.8000,31.333792,121.573302
2721,富鑫苑,航头路1257弄,12,公共充电站,1.20,0.8000,31.032000,121.590150
2722,海鑫苑,航头路1601弄,4,公共充电站,1.20,0.8000,31.029925,121.580721
2723,聚鑫苑,航头路1027弄,12,公共充电站,1.20,0.8000,31.032810,121.595830
2724,池鑫苑,航头路1137弄,12,公共充电站,1.20,0.8000,31.032313,121.593403
1509,宝燕商城(周浦店),周浦镇川周公路4354-4360号,10,公共充电站,1.20,0.8000,31.120094,121.580271
1688,繁荣馨苑,繁荣东路150弄1-12号,12,公共充电站,0.65,0.8000,31.105953,121.586719
2791,桔子水晶酒店康桥店,康桥路1789号,4,公共充电站,1.50,0.8000,31.150762,121.586276
2802,科海大楼,上海浦东新区纳贤路800号,6,公共充电站,1.25,0.8000,31.178726,121.605557
1546,金台大厦,金台路1398号,6,公共充电站,1.30,0.8000,31.252227,121.587669
1635,福建天安大厦(西南2门),金桥路1395-1397号,20,公共充电站,1.20,0.8000,31.253037,121.588197
2519,融都金桥园,金桥路1221弄,8,公共充电站,1.10,0.8000,31.255695,121.584530
2520,金桥新家园,金工路133弄,4,公共充电站,1.10,0.8000,31.255962,121.587577
2525,今达花园,金桥路989弄,4,公共充电站,0.64,0.8000,31.257448,121.580610
2599,银东大厦,新金桥路58号,6,公共充电站,1.30,0.8000,31.246494,121.593327
2702,雅斯酒店,金藏路51号,4,公共充电站,1.30,0.8000,31.250403,121.596961
1182,碧海现代苑,浙桥路277号,7,公共充电站,1.36,0.8000,31.252840,121.600379
1433,极乐汤碧云温泉馆,新金桥路600号,6,公共充电站,1.30,0.8000,31.250304,121.600566
1711,莱阳新家园,利津路119号附近,6,公共充电站,0.64,0.8000,31.279843,121.580557
2550,爱法新都一期 ,杨高中路58弄,6,公共充电站,0.64,0.8000,31.256874,121.600830
2551,爱法新都二期,杨高中路18弄,1,公共充电站,0.64,0.8000,31.256993,121.601066
2612,【宝马私人专用】金桥生态停车场,金新路58号,2,公共充电站,1.30,0.8000,31.252342,121.599531
2634,金海商业广场,金高路2388号,4,公共充电站,1.50,0.8000,31.259788,121.605306
2648,建银大厦,浙桥路289号,3,公共充电站,1.28,0.8000,31.252790,121.601670
2543,金地未未来,张扬北路2899号,12,公共充电站,0.64,0.8000,31.308513,121.587197
1536,世纪联华超市(外高桥店),夏碧路261号(近季景路),10,公共充电站,1.30,0.8000,31.337074,121.586633
1665,高帆大厦,浦东外高桥保税区马吉路2号,6,公共充电站,1.20,0.8000,31.348049,121.587871
1727,富豪会展公寓酒店,外高桥保税区富特西一路77号,12,公共充电站,1.20,0.8000,31.348980,121.587681
2585,凯兴大楼,日京路35号,6,公共充电站,1.72,0.8000,31.340193,121.593317
2683,交能大厦 ,奥纳路79号,3,公共充电站,1.30,0.8000,31.344414,121.592617
2725,汤臣工业园区,富特西一路381号,3,公共充电站,1.70,0.8000,31.337215,121.594786
2726,汤臣国贸大厦,基隆路1号,3,公共充电站,2.14,0.8000,31.349845,121.587819
1689,琉森公馆,周邓公路5333号,14,公共充电站,1.20,0.8000,31.117942,121.621581
1512,亲和源老年度假酒店,康桥镇秀沿路3101弄上海亲和源老年度假酒店,6,公共充电站,0.80,0.8000,31.138351,121.617035
2666,星峰企业园,盛夏路500弄,30,公共充电站,1.30,0.8000,31.209011,121.628760
2873,中芯花园,上海市浦东新区青桐路18弄,18,公共充电站,0.62,0.8000,31.218140,121.620934
2874,中芯花园北区 ,上海市浦东新区青桐路199弄 ,8,公共充电站,0.64,0.8000,31.219936,121.622020
1465,国创一期,丹桂路999号,24,公共充电站,1.35,0.8000,31.220802,121.630119
1472,麦腾智慧天地(东南门),锦绣东路1999号,3,公共充电站,1.20,0.8000,31.239234,121.606870
1698,东方万国企业中心,金桥镇新金桥路1599号东方万国企业中心,8,公共充电站,1.30,0.8000,31.256076,121.621754
2735,凯龙金桥商务园,新金桥路1888号,6,公共充电站,1.50,0.8000,31.260134,121.623062
2679,汇锦城,新环西路1000弄,2,公共充电站,0.65,0.8000,31.029479,121.638709
2713,汇锦城一期,新环西路1180弄,6,公共充电站,0.65,0.8000,31.032563,121.636740
2737,凯龙张江商务园一期,龙东大道3158号张江集电港,7,公共充电站,1.50,0.8000,31.221914,121.635527
2738,凯龙张江商务园二期,龙东大道3158弄6号一幢,6,公共充电站,1.50,0.8000,31.224353,121.638260
1570,慰杰公寓,顾高公路1958号,12,公共充电站,1.20,0.8000,31.300456,121.652285
1405,金桥阳光花苑,利川路421弄1-6号,3,公共充电站,1.20,0.8000,31.204525,121.684274
1406,金桥阳光花苑,上海市浦东新区利川路481弄,6,公共充电站,1.20,0.8000,31.204706,121.684603
1565,唐兴菜市场,唐镇顾唐路2800号唐兴菜市场,2,公共充电站,1.20,0.8000,31.212140,121.667035
1668,卡园三路园区,卡园三路59号大地财险2号楼,6,公共充电站,0.76,0.8000,31.235321,121.670963
1630,上海景福汽车销售服务有限公司,合庆镇龙东大道5901号,6,公共充电站,1.30,0.8000,31.236596,121.694706
2736,凯龙南汇商务园 ,宣黄公路2300-5号楼附近,3,公共充电站,1.50,0.8000,31.025381,121.729132
1681,宝业万华城(小区外面租售招商中心),听潮南路958弄24号,12,公共充电站,1.30,0.8000,31.025559,121.739371
1686,丹桂佳苑(东门),南团公路856号,20,公共充电站,0.80,0.8000,31.025901,121.763440
1495,康敏苑东区,靖海南路488弄,20,公共充电站,0.80,0.8000,31.036421,121.766187
1687,康敏苑西区,康锦路53弄,12,公共充电站,0.80,0.8000,31.036802,121.765753
2847,朗诗绿色公寓,秋亭路88号,20,公共充电站,0.79,0.8000,31.098555,121.761949
1497,绿地新都会南区,施湾镇施镇路396弄1号,6,公共充电站,1.30,0.8000,31.144046,121.756000
1545,千汇苑三村,千汇路581弄,8,公共充电站,0.80,0.8000,31.113040,121.764076
1498,绿地时代广场北区,施新路802弄,6,公共充电站,1.30,0.8000,31.147272,121.756856
1603,金鹏航空股份有限公司浦东运行基地,祝潘公路1号,12,公共充电站,0.00,0.8000,31.128212,121.775144
1515,凯德兰湾茗苑,万祥镇祥安路223弄,26,公共充电站,0.80,0.8000,30.960909,121.809849
1680,万宏村民委员会,万祥镇振万路266号,8,公共充电站,1.10,0.8000,30.970469,121.812810
2719,临港海洋科技创业中心,海洋一路333号,2,公共充电站,1.35,0.8000,30.872257,121.913134
